{"meta":{"schema_version":5,"generated_at":"2026-07-19T19:35:18.486177+00:00","provider":"東京都交通局・公共交通オープンデータ協議会","license":"CC BY 4.0"},"route":{"route_id":"186","route_name":"錦２７－３","route_long_name":""},"stops":{"0368-11":{"stop_id":"0368-11","stop_name":"亀戸駅通り","raw_stop_name":"亀戸駅通り","stop_name_kana":"","platform_code":"11番のりば","parent_station_id":"0368","lat":35.69642,"lon":139.824547},"0372-01":{"stop_id":"0372-01","stop_name":"亀戸六丁目","raw_stop_name":"亀戸六丁目","stop_name_kana":"","platform_code":"","parent_station_id":"0372","lat":35.696843,"lon":139.832341},"0373-02":{"stop_id":"0373-02","stop_name":"亀戸七丁目","raw_stop_name":"亀戸七丁目","stop_name_kana":"","platform_code":"","parent_station_id":"0373","lat":35.696972,"lon":139.835512},"0374-02":{"stop_id":"0374-02","stop_name":"亀戸九丁目","raw_stop_name":"亀戸九丁目","stop_name_kana":"","platform_code":"","parent_station_id":"0374","lat":35.697163,"lon":139.839259},"0442-08":{"stop_id":"0442-08","stop_name":"錦糸町駅前","raw_stop_name":"錦糸町駅前","stop_name_kana":"","platform_code":"8番のりば","parent_station_id":"0442","lat":35.695377,"lon":139.814114},"0493-01":{"stop_id":"0493-01","stop_name":"江東車庫前","raw_stop_name":"江東車庫前","stop_name_kana":"","platform_code":"","parent_station_id":"0493","lat":35.695691,"lon":139.817532},"0766-01":{"stop_id":"0766-01","stop_name":"水神森","raw_stop_name":"水神森","stop_name_kana":"","platform_code":"","parent_station_id":"0766","lat":35.696602,"lon":139.828669},"0806-01":{"stop_id":"0806-01","stop_name":"浅間神社","raw_stop_name":"浅間神社","stop_name_kana":"","platform_code":"","parent_station_id":"0806","lat":35.697449,"lon":139.844265},"1072-01":{"stop_id":"1072-01","stop_name":"中川新橋","raw_stop_name":"中川新橋","stop_name_kana":"","platform_code":"","parent_station_id":"1072","lat":35.698555,"lon":139.847876},"1273-05":{"stop_id":"1273-05","stop_name":"東大島駅前","raw_stop_name":"東大島駅前","stop_name_kana":"","platform_code":"5番のりば","parent_station_id":"1273","lat":35.689466,"lon":139.848897},"2211-02":{"stop_id":"2211-02","stop_name":"小松川二丁目","raw_stop_name":"小松川二丁目","stop_name_kana":"","platform_code":"","parent_station_id":"2211","lat":35.694176,"lon":139.849182},"2212-01":{"stop_id":"2212-01","stop_name":"小松川健康サポートセンター前","raw_stop_name":"小松川健康サポートセンター前","stop_name_kana":"","platform_code":"","parent_station_id":"2212","lat":35.695626,"lon":139.848945},"2213-01":{"stop_id":"2213-01","stop_name":"小松川第二小学校前","raw_stop_name":"小松川第二小学校前","stop_name_kana":"","platform_code":"","parent_station_id":"2213","lat":35.697593,"lon":139.850265},"2218-01":{"stop_id":"2218-01","stop_name":"亀戸一丁目","raw_stop_name":"亀戸一丁目","stop_name_kana":"","platform_code":"","parent_station_id":"2218","lat":35.696184,"lon":139.821023},"2272-02":{"stop_id":"2272-02","stop_name":"小松川一丁目アパート前","raw_stop_name":"小松川一丁目アパート前","stop_name_kana":"","platform_code":"","parent_station_id":"2272","lat":35.691935,"lon":139.848525}},"services":{"calendars":{},"exceptions":{"20260723":{"add":["77-272"],"remove":[]},"20260724":{"add":["77-272"],"remove":[]},"20260727":{"add":["77-272"],"remove":[]},"20260728":{"add":["77-272"],"remove":[]},"20260821":{"add":["77-272"],"remove":[]},"20260824":{"add":["77-272"],"remove":[]},"20260825":{"add":["77-272"],"remove":[]},"20260826":{"add":["77-272"],"remove":[]}}},"trips":[{"trip_id":"60601-1-77-272-0735","service_id":"77-272","headsign":"錦糸町駅前","direction_id":"1","shape_id":"60601-1","stop_times":[["1273-05",27300,27300,1],["2272-02",27300,27300,2],["2211-02",27360,27360,3],["2212-01",27420,27420,4],["2213-01",27600,27600,5],["1072-01",27780,27780,6],["0806-01",27900,27900,7],["0374-02",28080,28080,8],["0373-02",28140,28140,9],["0372-01",28200,28200,10],["0766-01",28320,28320,11],["0368-11",28500,28500,12],["2218-01",28620,28620,13],["0493-01",28680,28680,14],["0442-08",28860,28860,15]]},{"trip_id":"60601-1-77-272-0837","service_id":"77-272","headsign":"錦糸町駅前","direction_id":"1","shape_id":"60601-1","stop_times":[["1273-05",31020,31020,1],["2272-02",31020,31020,2],["2211-02",31080,31080,3],["2212-01",31140,31140,4],["2213-01",31320,31320,5],["1072-01",31500,31500,6],["0806-01",31620,31620,7],["0374-02",31740,31740,8],["0373-02",31800,31800,9],["0372-01",31860,31860,10],["0766-01",31980,31980,11],["0368-11",32160,32160,12],["2218-01",32280,32280,13],["0493-01",32340,32340,14],["0442-08",32520,32520,15]]}]}